[{"id":160957,"name":"Indra Singh Parihar","network_name":"Sambhavi Bilaspur","phone":"8817744446","afterhours_phone":null,"afterhours_cell":null,"email":null,"url":null,"address":{"city":"Bilaspur","state":"CHATTISGARH","street":"In Front Street Street - L - 10, Vinoba Nagar, Bilaspur, Chhattisgarh","country":"India","zip_code":"495001"},"location":{"lat":22.06538637,"lng":82.15299751},"distance":null,"dealer_attributes":[],"market_key":"in","featured":false},{"id":178685,"name":"Abdul Salam","network_name":"Newgoodluck","phone":"9733501713","afterhours_phone":null,"afterhours_cell":null,"email":null,"url":null,"address":{"city":"GHATAKPUKUR","state":"WEST BENGAL","street":"GHATAKPUKUR, BHANAR","country":"India","zip_code":"743502"},"location":{"lat":22.502872,"lng":88.61244821},"distance":null,"dealer_attributes":[],"market_key":"in","featured":false},{"id":178686,"name":"Rohit kejriwal","network_name":"Kejriwal & Varanasi","phone":"9839080780","afterhours_phone":null,"afterhours_cell":null,"email":null,"url":null,"address":{"city":"Varanasi","state":"Uttar pradesh","street":"Parao Varanasi","country":"India","zip_code":"221012"},"location":{"lat":25.3137617,"lng":83.0474827},"distance":null,"dealer_attributes":[],"market_key":"in","featured":false},{"id":178687,"name":"Rajesh Singh","network_name":"Tyre Empor Varanasi","phone":"9415336273","afterhours_phone":null,"afterhours_cell":null,"email":null,"url":null,"address":{"city":"Varanasi","state":"UTTAR PRADESH","street":"Parao Varanasi","country":"India","zip_code":"232101"},"location":{"lat":25.3112362,"lng":83.0533217},"distance":null,"dealer_attributes":[],"market_key":"in","featured":false},{"id":178688,"name":"Rohit","network_name":"Sindh Katni","phone":"9827226984","afterhours_phone":null,"afterhours_cell":null,"email":null,"url":null,"address":{"city":"Katni","state":"MADHYA PRADESH","street":"New Bus stand katni","country":"India","zip_code":"483501"},"location":{"lat":23.8443114,"lng":80.3842944},"distance":null,"dealer_attributes":[],"market_key":"in","featured":false},{"id":178689,"name":"Dharmendra Ahuja","network_name":"Anand Motors Katni","phone":"9301560444","afterhours_phone":null,"afterhours_cell":null,"email":null,"url":null,"address":{"city":"Katni","state":"MADHYA PRADESH","street":"Near New Bus stand Opposite Hotel Surya","country":"India","zip_code":"483501"},"location":{"lat":23.8443244,"lng":80.3842996},"distance":null,"dealer_attributes":[],"market_key":"in","featured":false},{"id":178690,"name":"Shubham","network_name":"Saraogienter","phone":"9893113811","afterhours_phone":null,"afterhours_cell":null,"email":null,"url":null,"address":{"city":"Katni","state":"MADHYA PRADESH","street":"Near Panna moud  Mirzapur road Katni","country":"India","zip_code":"483501"},"location":{"lat":23.8572441,"lng":80.3819035},"distance":null,"dealer_attributes":[],"market_key":"in","featured":false},{"id":178691,"name":"Satyender Pandey","network_name":"Santosh Au Katni","phone":"9425160736","afterhours_phone":null,"afterhours_cell":null,"email":null,"url":null,"address":{"city":"Katni","state":"MADHYA PRADESH","street":"Mirzapur Road Chaka katni","country":"India","zip_code":"483501"},"location":{"lat":23.8853225,"lng":80.3898448},"distance":null,"dealer_attributes":[],"market_key":"in","featured":false},{"id":178692,"name":"Prateek Agrawal","network_name":"Prateek Ty Bilaspuru","phone":"9893366225","afterhours_phone":null,"afterhours_cell":null,"email":null,"url":null,"address":{"city":"Kota","state":"CHATTISGARH","street":"Main road, Kota, Bilaspur, Chhattisgarh","country":"India","zip_code":"495113"},"location":{"lat":22.2810073,"lng":82.011879},"distance":null,"dealer_attributes":[],"market_key":"in","featured":false},{"id":178693,"name":"Manjeet Singh Ghambhir","network_name":"Heavens Pali","phone":"9425281000","afterhours_phone":null,"afterhours_cell":null,"email":null,"url":null,"address":{"city":"Pali","state":"CHATTISGARH","street":"Heavens Diamond & Sons, Manjeet Singh Ghambhir, Bilaspur road, Pali, Chhattisgarh","country":"India","zip_code":"495449"},"location":{"lat":22.36996617,"lng":82.32004216},"distance":null,"dealer_attributes":[],"market_key":"in","featured":false},{"id":178694,"name":"Ankush Juneja","network_name":"Royalitarsi","phone":"9425042376","afterhours_phone":null,"afterhours_cell":null,"email":null,"url":null,"address":{"city":"Itarsi","state":"MADHYA PRADESH","street":"Garage line, Itarsi","country":"India","zip_code":"461111"},"location":{"lat":22.6114989,"lng":77.7711143},"distance":null,"dealer_attributes":[],"market_key":"in","featured":false},{"id":178695,"name":"Narendra khandelwal","network_name":"Jaishreeshyamdhamiri","phone":"9826111872","afterhours_phone":null,"afterhours_cell":null,"email":null,"url":null,"address":{"city":"Dhamtari","state":"CHATTISGARH","street":"Raipur Road, infront of Nirmal waybridge","country":"India","zip_code":"493773"},"location":{"lat":20.7279095,"lng":81.5555927},"distance":null,"dealer_attributes":[],"market_key":"in","featured":false},{"id":178696,"name":"Manoj saini","network_name":"Saini Tyre Kotputli","phone":"8107826965","afterhours_phone":null,"afterhours_cell":null,"email":null,"url":null,"address":{"city":"Jaipur","state":"RAJASTHAN","street":"N.H.8Kotput","country":"India","zip_code":"303108"},"location":{"lat":27.708335,"lng":76.193315},"distance":null,"dealer_attributes":[],"market_key":"in","featured":false},{"id":178697,"name":"Punit Kabra","network_name":"Mahakaay Chittorgarh","phone":"9413316672","afterhours_phone":null,"afterhours_cell":null,"email":null,"url":null,"address":{"city":"Nimbahera","state":"RAJASTHAN","street":"JK chauraha, Nimbahera, Chittorgarh","country":"India","zip_code":"312601"},"location":{"lat":24.63618542,"lng":74.67671167},"distance":null,"dealer_attributes":[],"market_key":"in","featured":false},{"id":178698,"name":"Suresh Chand Gupta","network_name":"Gupta Auto Phari","phone":"9414026357","afterhours_phone":null,"afterhours_cell":null,"email":null,"url":null,"address":{"city":"Bharatpur","state":"RAJASTHAN","street":"Exibition Road","country":"India","zip_code":"321001"},"location":{"lat":27.2246841,"lng":77.4718105},"distance":null,"dealer_attributes":[],"market_key":"in","featured":false},{"id":178699,"name":"Shri Shyam Tyres","network_name":"Shrishyamambikapur","phone":"9425254105","afterhours_phone":null,"afterhours_cell":null,"email":null,"url":null,"address":{"city":"Ambikapur","state":"CHATTISGARH","street":"Kharsia road, Ambikapur, Chhattisgarh","country":"India","zip_code":"497001"},"location":{"lat":23.11227564,"lng":83.20184127},"distance":null,"dealer_attributes":[],"market_key":"in","featured":false},{"id":178700,"name":"Abhishek goyal","network_name":"Goyaltyrecen","phone":"7014656661","afterhours_phone":null,"afterhours_cell":null,"email":null,"url":null,"address":{"city":"Jaipur","state":"RAJASTHAN","street":"B11/26 automobile nagar opposite suraj pole mandi jaipur","country":"India","zip_code":"302002"},"location":{"lat":26.9138697,"lng":75.84813},"distance":null,"dealer_attributes":[],"market_key":"in","featured":false},{"id":178701,"name":"Tiwari ji Balaji Tyre House","network_name":"Shree Kannauj","phone":"8423024724","afterhours_phone":null,"afterhours_cell":null,"email":null,"url":null,"address":{"city":"Chhibaramau","state":"UTTAR PRADESH","street":"Ppp. TVS Showroom,Western By Pass","country":"India","zip_code":"209721"},"location":{"lat":27.1555537,"lng":79.4875601},"distance":null,"dealer_attributes":[],"market_key":"in","featured":false},{"id":178702,"name":"SUNIL KUMAR GUPTA","network_name":"Thewheel Jaipur","phone":"7891253000","afterhours_phone":null,"afterhours_cell":null,"email":null,"url":null,"address":{"city":"JAIPUR","state":"RAJASTHAN","street":"G 403 Mahima Elanza, Mansarovar, Jaipur","country":"India","zip_code":"302020"},"location":{"lat":26.9097091,"lng":75.8439266},"distance":null,"dealer_attributes":[],"market_key":"in","featured":false},{"id":178703,"name":"Agniva Paul","network_name":"Ramnagar Kolkata","phone":"9163563484","afterhours_phone":null,"afterhours_cell":null,"email":null,"url":null,"address":{"city":"KOLKATA","state":"WEST BENGAL","street":"1 NO HARIMOHAN GHOSH ROAD KOLKATA","country":"India","zip_code":"700024"},"location":{"lat":22.54190609,"lng":88.29616524},"distance":null,"dealer_attributes":[],"market_key":"in","featured":false},{"id":178704,"name":"Shahid Khan","network_name":"Aslam Tyre Bhaupur,f","phone":"6393834336","afterhours_phone":null,"afterhours_cell":null,"email":null,"url":null,"address":{"city":"Farrukhabad","state":"UTTAR PRADESH","street":"Bebar Road , Farrukhabad","country":"India","zip_code":"209625"},"location":{"lat":27.350876,"lng":79.6089742},"distance":null,"dealer_attributes":[],"market_key":"in","featured":false},{"id":178705,"name":"Chintu vaishnav","network_name":"Shri Devna Bhilwara","phone":"7742558332","afterhours_phone":null,"afterhours_cell":null,"email":null,"url":null,"address":{"city":"Ladpura","state":"RAJASTHAN","street":"Ladpura chauraha","country":"India","zip_code":"311604"},"location":{"lat":25.14897657,"lng":75.11655093},"distance":null,"dealer_attributes":[],"market_key":"in","featured":false},{"id":178706,"name":"SHARMA TYRES BEHROR","network_name":"Sharma Tyr Behror","phone":"9414810998","afterhours_phone":null,"afterhours_cell":null,"email":null,"url":null,"address":{"city":"BEHROR","state":"RAJASTHAN","street":"MAIN CHOURAHA BEHROR","country":"India","zip_code":"301701"},"location":{"lat":27.8955473,"lng":76.2965108},"distance":null,"dealer_attributes":[],"market_key":"in","featured":false},{"id":178707,"name":"Vinod Kumar Agrawal","network_name":"J Pkorba","phone":"9644409100","afterhours_phone":null,"afterhours_cell":null,"email":null,"url":null,"address":{"city":"Korba","state":"Chhattisgarh","street":"Plot no. 471, I.C.C., Transport Nagar, Korba, Chhattisgarh","country":"India","zip_code":"495002"},"location":{"lat":22.36151975,"lng":82.70660551},"distance":null,"dealer_attributes":[],"market_key":"in","featured":false},{"id":178708,"name":"SADHAN KUNDU","network_name":"Kundu Tyres Dankuni","phone":"9831125721","afterhours_phone":null,"afterhours_cell":null,"email":null,"url":null,"address":{"city":"DANKUNI","state":"WEST BENGAL","street":"ASHA LATA KANTA MAITY PARA DANKUNI HOOGHLY","country":"India","zip_code":"712113"},"location":{"lat":22.70846361,"lng":88.30065172},"distance":null,"dealer_attributes":[],"market_key":"in","featured":false},{"id":178709,"name":"Soubhagya Das","network_name":"Das Tyres  Birbhum","phone":"9434172346","afterhours_phone":null,"afterhours_cell":null,"email":null,"url":null,"address":{"city":"SURI","state":"WEST BENGAL","street":"Suri, (NEAR BANK OF BARODA),Birbhum","country":"India","zip_code":"731101"},"location":{"lat":23.8969641,"lng":87.5323218},"distance":null,"dealer_attributes":[],"market_key":"in","featured":false},{"id":178710,"name":"Asish Kumar Adak","network_name":"Asish Trad Amtala","phone":"9163057979","afterhours_phone":null,"afterhours_cell":null,"email":null,"url":null,"address":{"city":"Amtala","state":"WEST BENGAL","street":"DH Road, Amtala(sangam super market complex) ,south 24 parganas","country":"India","zip_code":"743503"},"location":{"lat":22.3716846,"lng":88.2718701},"distance":null,"dealer_attributes":[],"market_key":"in","featured":false},{"id":178711,"name":"SACHINDRA NATH DAS","network_name":"Das Enterprisesabang","phone":"7076400199","afterhours_phone":null,"afterhours_cell":null,"email":null,"url":null,"address":{"city":"Paschim Medinipur","state":"WEST BENGAL","street":"VILL-RAKHILYA, P.O+P.S-SABANG","country":"India","zip_code":"721144"},"location":{"lat":22.1904772,"lng":87.5912419},"distance":null,"dealer_attributes":[],"market_key":"in","featured":false},{"id":178712,"name":"Liyakat mallick","network_name":"Newhafizegra","phone":"9735230179","afterhours_phone":null,"afterhours_cell":null,"email":null,"url":null,"address":{"city":"Egra purba medinipur","state":"WEST BENGAL","street":"270 by pass Road purusottampur Egra","country":"India","zip_code":"721429"},"location":{"lat":21.9054814,"lng":87.5361929},"distance":null,"dealer_attributes":[],"market_key":"in","featured":false},{"id":178713,"name":"Manab mondal","network_name":"Mondal Tyres Birbhum","phone":"9434326339","afterhours_phone":null,"afterhours_cell":null,"email":null,"url":null,"address":{"city":"Sainthia","state":"WEST BENGAL","street":"Sainthia.  Union board.   Birbhum","country":"India","zip_code":"731234"},"location":{"lat":23.9485468,"lng":87.6721369},"distance":null,"dealer_attributes":[],"market_key":"in","featured":false},{"id":178714,"name":"Arpita Maity","network_name":"Belda Tyre Belda","phone":"9733060947","afterhours_phone":null,"afterhours_cell":null,"email":null,"url":null,"address":{"city":"Belda","state":"WEST BENGAL","street":"Belda, o.T. Road ,Paschim  Midnapur, (WB).","country":"India","zip_code":"721424"},"location":{"lat":22.0691565,"lng":87.336807},"distance":null,"dealer_attributes":[],"market_key":"in","featured":false},{"id":178715,"name":"SOUMYA SAHA","network_name":"Sahaenterkolkata","phone":"9143408541","afterhours_phone":null,"afterhours_cell":null,"email":null,"url":null,"address":{"city":"Kolkata","state":"West Bengal","street":"677 KULPI ROAD, SARBERIA, SOUTH 24 PARGANAS","country":"India","zip_code":"743385"},"location":{"lat":22.2678815,"lng":88.4440796},"distance":null,"dealer_attributes":[],"market_key":"in","featured":false},{"id":178716,"name":"Samsuddin Mondal","network_name":"Ss Tyres Amtala","phone":"9433310070","afterhours_phone":null,"afterhours_cell":null,"email":null,"url":null,"address":{"city":"Kolkata","state":"WEST BENGAL","street":"Amtala, N.D. Road, Paschim Fakir Para","country":"India","zip_code":"743503"},"location":{"lat":22.3728202,"lng":88.2720904},"distance":null,"dealer_attributes":[],"market_key":"in","featured":false},{"id":178717,"name":"Samida Bibi","network_name":"Data Baba Rampurhat","phone":"7029618147","afterhours_phone":null,"afterhours_cell":null,"email":null,"url":null,"address":{"city":"Rampurhat","state":"WEST BENGAL","street":"Vill-Bonhat, po-kharbona, Rampurhat Dumka Road, Near Saint Paul Schoolool","country":"India","zip_code":"731224"},"location":{"lat":24.2025589,"lng":87.7527983},"distance":null,"dealer_attributes":[],"market_key":"in","featured":false},{"id":178718,"name":"Soma samanta","network_name":"Sneha Ente Panskura","phone":"9434146399","afterhours_phone":null,"afterhours_cell":null,"email":null,"url":null,"address":{"city":"Panskura","state":"WEST BENGAL","street":"Naranda panskura purbamadinipur","country":"India","zip_code":"721139"},"location":{"lat":22.400259,"lng":87.7169405},"distance":null,"dealer_attributes":[],"market_key":"in","featured":false},{"id":178719,"name":"Arsed Ali","network_name":"Newivantyre","phone":"9064812771","afterhours_phone":null,"afterhours_cell":null,"email":null,"url":null,"address":{"city":"East Midnapore","state":"WEST BENGAL","street":"Mecheda bus stand, mecheda, kakdihi","country":"India","zip_code":"721137"},"location":{"lat":22.4138481,"lng":87.8601979},"distance":null,"dealer_attributes":[],"market_key":"in","featured":false},{"id":178720,"name":"ROUNICK GHOSH","network_name":"Joy Durgaamtala","phone":"9830123281","afterhours_phone":null,"afterhours_cell":null,"email":null,"url":null,"address":{"city":"Kolkata","state":"WEST BENGAL","street":"Amtalahat","country":"India","zip_code":"743503"},"location":{"lat":22.3703927,"lng":88.2719201},"distance":null,"dealer_attributes":[],"market_key":"in","featured":false},{"id":178721,"name":"Mosharaf molla","network_name":"M Enterprisekulpi","phone":"9732570583","afterhours_phone":null,"afterhours_cell":null,"email":null,"url":null,"address":{"city":"Kulpi","state":"WEST BENGAL","street":"Vill+P.O.+P.S- Kulpi","country":"India","zip_code":"743351"},"location":{"lat":22.0824308,"lng":88.2484506},"distance":null,"dealer_attributes":[],"market_key":"in","featured":false},{"id":178722,"name":"Santu Maity","network_name":"Maity Khargapur","phone":"9434185270","afterhours_phone":null,"afterhours_cell":null,"email":null,"url":null,"address":{"city":"Kharagpur","state":"WEST BENGAL","street":"Sahachowk,NH-6, Rajpura., P.O-Rakhajungal., Dist-Paschim Midnapore.","country":"India","zip_code":"721301"},"location":{"lat":22.350768,"lng":87.2743208},"distance":null,"dealer_attributes":[],"market_key":"in","featured":false},{"id":178723,"name":"Vinod deshlahra","network_name":"Jain Tyres Durg","phone":"9425242131","afterhours_phone":null,"afterhours_cell":null,"email":null,"url":null,"address":{"city":"Durg","state":"CHATTISGARH","street":"Opp polytechnic hostel GE Road","country":"India","zip_code":"491001"},"location":{"lat":21.1923728,"lng":81.2906586},"distance":null,"dealer_attributes":[],"market_key":"in","featured":false},{"id":178724,"name":"Gopinath Ghorai","network_name":"Kolaghat T Kolaghat","phone":"9434149055","afterhours_phone":null,"afterhours_cell":null,"email":null,"url":null,"address":{"city":"Kolaghat","state":"WEST BENGAL","street":"Barisha, Kolaghat, Purba Medinipur","country":"India","zip_code":"721134"},"location":{"lat":22.433564,"lng":87.8661769},"distance":null,"dealer_attributes":[],"market_key":"in","featured":false},{"id":178725,"name":"Surgyan choudhury","network_name":"Pooja Tyres Chomu","phone":"9950624385","afterhours_phone":null,"afterhours_cell":null,"email":null,"url":null,"address":{"city":"Chomu","state":"RAJASTHAN","street":"Bhojlawa cut bye pass chomu","country":"India","zip_code":"303702"},"location":{"lat":27.1547101,"lng":75.7351508},"distance":null,"dealer_attributes":[],"market_key":"in","featured":false},{"id":178726,"name":"Jitendra","network_name":"Lucky Jaipur","phone":"9785616674","afterhours_phone":null,"afterhours_cell":null,"email":null,"url":null,"address":{"city":"JAIPUR","state":"RAJASTHAN","street":"Lalana moad Pragpura Paota","country":"India","zip_code":"303107"},"location":{"lat":27.5988077,"lng":76.0878721},"distance":null,"dealer_attributes":[],"market_key":"in","featured":false},{"id":178727,"name":"Shailendra","network_name":"Shree Ji T Bhilwara","phone":"9314461301","afterhours_phone":null,"afterhours_cell":null,"email":null,"url":null,"address":{"city":"Bhilwara","state":"RAJASTHAN","street":"TP nagar bhilwara","country":"India","zip_code":"311001"},"location":{"lat":25.32615519,"lng":74.62884552},"distance":null,"dealer_attributes":[],"market_key":"in","featured":false},{"id":178728,"name":"Mohammed Aziz","network_name":"Majeed Tyres Shahpur","phone":"9950524686","afterhours_phone":null,"afterhours_cell":null,"email":null,"url":null,"address":{"city":"shahpura jaipur","state":"RAJASTHAN","street":"majeed Tyre Sales NH8 shahpura near bajaj kanta","country":"India","zip_code":"303103"},"location":{"lat":27.3854099,"lng":75.965374},"distance":null,"dealer_attributes":[],"market_key":"in","featured":false},{"id":178729,"name":"Saurabh Agarwal","network_name":"Agarwal Bhilwara","phone":"9829412624","afterhours_phone":null,"afterhours_cell":null,"email":null,"url":null,"address":{"city":"Bhilwara","state":"RAJASTHAN","street":"TP nagar, Bhilwara","country":"India","zip_code":"311001"},"location":{"lat":25.32700458,"lng":74.62871482},"distance":null,"dealer_attributes":[],"market_key":"in","featured":false},{"id":178730,"name":"Ramesh Chand","network_name":"K.k.tyres Karauli","phone":"9799061157","afterhours_phone":null,"afterhours_cell":null,"email":null,"url":null,"address":{"city":"Karauli","state":"RAJASTHAN","street":"Magzine","country":"India","zip_code":"322241"},"location":{"lat":26.4957075,"lng":77.0168154},"distance":null,"dealer_attributes":[],"market_key":"in","featured":false},{"id":178731,"name":"Kiran Devi","network_name":"Balaji Balesar","phone":"9461236512","afterhours_phone":null,"afterhours_cell":null,"email":null,"url":null,"address":{"city":"Balesar","state":"DELHI","street":"Balesar ,Chapra Bslesar","country":"India","zip_code":"110002"},"location":{"lat":26.2053049,"lng":72.9843019},"distance":null,"dealer_attributes":[],"market_key":"in","featured":false},{"id":178732,"name":"Rafiq khan","network_name":"H.k Mangaliyajodhpu","phone":"9414301667","afterhours_phone":null,"afterhours_cell":null,"email":null,"url":null,"address":{"city":"Jodhpur","state":"RAJASTHAN","street":"Balesar Bye Pass Jodhpur","country":"India","zip_code":"342005"},"location":{"lat":26.2052357,"lng":72.9841919},"distance":null,"dealer_attributes":[],"market_key":"in","featured":false},{"id":178733,"name":"Saurabh Maheshwari","network_name":"Pratima Jodhpur","phone":"9414126396","afterhours_phone":null,"afterhours_cell":null,"email":null,"url":null,"address":{"city":"Jodhpur","state":"RAJASTHAN","street":"C 7 Sardar Pura Chopsani Jodhpur","country":"India","zip_code":"342005"},"location":{"lat":26.2052357,"lng":72.9841919},"distance":null,"dealer_attributes":[],"market_key":"in","featured":false},{"id":178734,"name":"Rajesh","network_name":"Marudhar Balotra","phone":"9414384893","afterhours_phone":null,"afterhours_cell":null,"email":null,"url":null,"address":{"city":"Balotra","state":"RAJASTHAN","street":"Near Shani Temple Balotra","country":"India","zip_code":"344022"},"location":{"lat":26.2053092,"lng":72.9842918},"distance":null,"dealer_attributes":[],"market_key":"in","featured":false},{"id":178735,"name":"Om Parkash","network_name":"Shiv Shankar Anchore","phone":"9414425237","afterhours_phone":null,"afterhours_cell":null,"email":null,"url":null,"address":{"city":"Sanchore","state":"RAJASTHAN","street":"Sanchore Barmer Highway ,Sanchore","country":"India","zip_code":"343041"},"location":{"lat":26.2052938,"lng":72.9842926},"distance":null,"dealer_attributes":[],"market_key":"in","featured":false},{"id":178736,"name":"Mr Rahul","network_name":"Senior Jodhpur","phone":"9413025000","afterhours_phone":null,"afterhours_cell":null,"email":null,"url":null,"address":{"city":"Jodhpur","state":"RAJASTHAN","street":"Basni Jodhpur","country":"India","zip_code":"342005"},"location":{"lat":26.2052938,"lng":72.9842926},"distance":null,"dealer_attributes":[],"market_key":"in","featured":false},{"id":178737,"name":"Raju Ram","network_name":"Shri Jakharjodhpur","phone":"9660770373","afterhours_phone":null,"afterhours_cell":null,"email":null,"url":null,"address":{"city":"Jodhpur","state":"RAJASTHAN","street":"Narwa, IOC PETROL PUMP","country":"India","zip_code":"342024"},"location":{"lat":26.2052926,"lng":72.9842872},"distance":null,"dealer_attributes":[],"market_key":"in","featured":false},{"id":178738,"name":"Dinesh Kanwa","network_name":"Kanwa Motorpithawas","phone":"9950597029","afterhours_phone":null,"afterhours_cell":null,"email":null,"url":null,"address":{"city":"Jodhpur","state":"RAJASTHAN","street":"Dangiyavaas","country":"India","zip_code":"342027"},"location":{"lat":26.2052926,"lng":72.9842872},"distance":null,"dealer_attributes":[],"market_key":"in","featured":false},{"id":178739,"name":"Md Naseem Ahmad","network_name":"Asian Tyre Debra","phone":"9933609607","afterhours_phone":null,"afterhours_cell":null,"email":null,"url":null,"address":{"city":"Debra","state":"WEST BENGAL","street":"Debra bazar opposite of Indian oil petrol pump","country":"India","zip_code":"721126"},"location":{"lat":22.3947864,"lng":87.5631895},"distance":null,"dealer_attributes":[],"market_key":"in","featured":false},{"id":178740,"name":"RAJENDAR SINGH BAGGA","network_name":"Raja Tyres Asansol","phone":"9434028433","afterhours_phone":null,"afterhours_cell":null,"email":null,"url":null,"address":{"city":"Asansol","state":"WEST BENGAL","street":"189,GT ROAD RAMBANDHU TALAW, ASANSOL","country":"India","zip_code":"713303"},"location":{"lat":23.6816228,"lng":86.9885213},"distance":null,"dealer_attributes":[],"market_key":"in","featured":false},{"id":178741,"name":"Aparna Maity mondal","network_name":"Rajeswary Purba","phone":"9734046944","afterhours_phone":null,"afterhours_cell":null,"email":null,"url":null,"address":{"city":"Tamluk Opp D. M Office","state":"WEST BENGAL","street":"Tamluk Salgachia/auto Accessories Stores,","country":"India","zip_code":"721636"},"location":{"lat":22.2769969,"lng":87.9261596},"distance":null,"dealer_attributes":[],"market_key":"in","featured":false},{"id":178742,"name":"Vivek Agrawal","network_name":"Jai Raipur","phone":"9981111888","afterhours_phone":null,"afterhours_cell":null,"email":null,"url":null,"address":{"city":"Raipur","state":"CHATTISGARH","street":"Plot no 3-4, siltara industrial growth centre, phase 1, siltara","country":"India","zip_code":"493111"},"location":{"lat":21.359138,"lng":81.6626095},"distance":null,"dealer_attributes":[],"market_key":"in","featured":false},{"id":178743,"name":"Rajendra Yadav","network_name":"Sirohi Tyressirohi","phone":"9950953111","afterhours_phone":null,"afterhours_cell":null,"email":null,"url":null,"address":{"city":"Sirohi neemkathana","state":"RAJASTHAN","street":"Sirohi neemkathana","country":"India","zip_code":"332714"},"location":{"lat":27.7052385,"lng":75.7310173},"distance":null,"dealer_attributes":[],"market_key":"in","featured":false},{"id":178744,"name":"Ashok Jain","network_name":"Ashoka Tyres Jaipur","phone":"9460654426","afterhours_phone":null,"afterhours_cell":null,"email":null,"url":null,"address":{"city":"Jaipur","state":"RAJASTHAN","street":"Transport nagar jaipur","country":"India","zip_code":"302004"},"location":{"lat":26.9155858,"lng":75.8227543},"distance":null,"dealer_attributes":[],"market_key":"in","featured":false},{"id":178745,"name":"Alankrit mundra","network_name":"Balajiajmer","phone":"7737473244","afterhours_phone":null,"afterhours_cell":null,"email":null,"url":null,"address":{"city":"Kekri","state":"RAJASTHAN","street":"In front of bus stand, kota road","country":"India","zip_code":"305404"},"location":{"lat":25.9749388,"lng":75.1469919},"distance":null,"dealer_attributes":[],"market_key":"in","featured":false},{"id":178746,"name":"NAVEEN SHARMA","network_name":"Sharma Tyr Behror","phone":"9414810998","afterhours_phone":null,"afterhours_cell":null,"email":null,"url":null,"address":{"city":"BEHROR","state":"RAJASTHAN","street":"MAIN CHOURAHA BEHROR","country":"India","zip_code":"301701"},"location":{"lat":27.8927274,"lng":76.29407},"distance":null,"dealer_attributes":[],"market_key":"in","featured":false},{"id":178747,"name":"Jagan ram saini","network_name":"Dwarakarajgarh","phone":"7073656633","afterhours_phone":null,"afterhours_cell":null,"email":null,"url":null,"address":{"city":"Rajgarh","state":"RAJASTHAN","street":"Megha highway road rajgarh","country":"India","zip_code":"301408"},"location":{"lat":27.2390015,"lng":76.5991122},"distance":null,"dealer_attributes":[],"market_key":"in","featured":false},{"id":178748,"name":"Kshitij Sethi","network_name":"Sethi Tyres Sikar","phone":"9414058513","afterhours_phone":null,"afterhours_cell":null,"email":null,"url":null,"address":{"city":"Jaipur","state":"RAJASTHAN","street":"Road No 14 Bypass crossing, Sikar Road, VKI Jaipur","country":"India","zip_code":"302013"},"location":{"lat":26.99949796,"lng":75.77034226},"distance":null,"dealer_attributes":[],"market_key":"in","featured":false},{"id":178749,"name":"SULAV HARLALKA","network_name":"Haralalka Kolkata","phone":"9836166664","afterhours_phone":null,"afterhours_cell":null,"email":null,"url":null,"address":{"city":"KOLKATA","state":"WEST BENGAL","street":"Ashokgarh Dunlop","country":"India","zip_code":"700108"},"location":{"lat":22.6522819,"lng":88.37433636},"distance":null,"dealer_attributes":[],"market_key":"in","featured":false},{"id":178750,"name":"PURSHOTTAM AGARWAL","network_name":"Dtbckolkata","phone":"9831022156","afterhours_phone":null,"afterhours_cell":null,"email":null,"url":null,"address":{"city":"KOLKATA","state":"WEST BENGAL","street":"SUBHA SHE PALLY DUNLOP KOLKATA","country":"India","zip_code":"700108"},"location":{"lat":22.64824606,"lng":88.37756236},"distance":null,"dealer_attributes":[],"market_key":"in","featured":false},{"id":178751,"name":"Mahesh Kumar Sultania","network_name":"Shivjanjgir-champa","phone":"8251974599","afterhours_phone":null,"afterhours_cell":null,"email":null,"url":null,"address":{"city":"Sheorinarayan","state":"CHATTISGARH","street":"Natraj Chowk, Sheorinarayan, Chhattisgarh","country":"India","zip_code":"495557"},"location":{"lat":21.72092458,"lng":82.58858882},"distance":null,"dealer_attributes":[],"market_key":"in","featured":false},{"id":178752,"name":"SIDDHARTH","network_name":"Shan Nagaur","phone":"9667199685","afterhours_phone":null,"afterhours_cell":null,"email":null,"url":null,"address":{"city":"Nagaur","state":"RAJASTHAN","street":"near UPHC nagar Nagaur","country":"India","zip_code":"341001"},"location":{"lat":28.0605176,"lng":73.3364159},"distance":null,"dealer_attributes":[],"market_key":"in","featured":false},{"id":178753,"name":"Rakesh Kumar Agrawal","network_name":"Jai Durga Tyresakti","phone":"7000490347","afterhours_phone":null,"afterhours_cell":null,"email":null,"url":null,"address":{"city":"Sakti","state":"CHATTISGARH","street":"Ward no. 14, Baradwar road, Sakti, Janjgir-Champa, Chhattisgarh","country":"India","zip_code":"495689"},"location":{"lat":22.02269801,"lng":82.95456011},"distance":null,"dealer_attributes":[],"market_key":"in","featured":false},{"id":178754,"name":"Gupta enterprises","network_name":"Gupta Entehanumanga","phone":"9414094628","afterhours_phone":null,"afterhours_cell":null,"email":null,"url":null,"address":{"city":"Hanumangarh","state":"RAJASTHAN","street":"C-14 Industrial area Hanumangarh Jn","country":"India","zip_code":"335512"},"location":{"lat":29.6231124,"lng":74.2728188},"distance":null,"dealer_attributes":[],"market_key":"in","featured":false},{"id":178755,"name":"Saurabh Maheshwari","network_name":"Pratima Jodhpur","phone":"9414126396","afterhours_phone":null,"afterhours_cell":null,"email":null,"url":null,"address":{"city":"Jodhpur","state":"RAJASTHAN","street":"C 7, Sardarpura , Chopasni Road Jodhpur","country":"India","zip_code":"342005"},"location":{"lat":26.2053427,"lng":72.9841181},"distance":null,"dealer_attributes":[],"market_key":"in","featured":false},{"id":178756,"name":"Vikram Rajpurohit","network_name":"Shivamtysardarsh","phone":"9828476504","afterhours_phone":null,"afterhours_cell":null,"email":null,"url":null,"address":{"city":"Sardarshahar","state":"RAJASTHAN","street":"Moter Market","country":"India","zip_code":"331403"},"location":{"lat":28.4262561,"lng":74.5242182},"distance":null,"dealer_attributes":[],"market_key":"in","featured":false},{"id":178757,"name":"Aditya Haralalka","network_name":"Haralalka Tyre Kamru","phone":"9830032198","afterhours_phone":null,"afterhours_cell":null,"email":null,"url":null,"address":{"city":"Guwahati","state":"ASSAM","street":"Shivshakti compound NH-37 Beharbari Lalmati Beltola Guwahati","country":"India","zip_code":"781029"},"location":{"lat":26.1129776,"lng":91.778425},"distance":null,"dealer_attributes":[],"market_key":"in","featured":false},{"id":178758,"name":"Uday Pratap Singh","network_name":"Pratap Mot Varanasi","phone":"9839415869","afterhours_phone":null,"afterhours_cell":null,"email":null,"url":null,"address":{"city":"Mirzapur, Narayanpur","state":"UTTAR PRADESH","street":"Narayanpur Market","country":"India","zip_code":"231305"},"location":{"lat":25.20287,"lng":83.024221},"distance":null,"dealer_attributes":[],"market_key":"in","featured":false},{"id":178759,"name":"UTTAM KUMAR DEY","network_name":"Arambagh Hooghly","phone":"9475873960","afterhours_phone":null,"afterhours_cell":null,"email":null,"url":null,"address":{"city":"ARAMBAGH","state":"WEST BENGAL","street":"KANUNA MARKET ARAMBAG HOOGHLY","country":"India","zip_code":"712601"},"location":{"lat":22.88477174,"lng":87.78616921},"distance":null,"dealer_attributes":[],"market_key":"in","featured":false},{"id":178760,"name":"Manish Kumar Agrawal","network_name":"Bharti Tyres Raigarh","phone":"9009400547","afterhours_phone":null,"afterhours_cell":null,"email":null,"url":null,"address":{"city":"Raigarh","state":"CHATTISGARH","street":"Shop no. 02, Near Mahindra Auto, Jagatpur road, Raigarh, Chhattisgarh","country":"India","zip_code":"496001"},"location":{"lat":21.91398185,"lng":83.38363552},"distance":null,"dealer_attributes":[],"market_key":"in","featured":false},{"id":178761,"name":"Rajiv Kumar","network_name":"Rajiv & Co Gurdaspur","phone":"9417047288","afterhours_phone":null,"afterhours_cell":null,"email":null,"url":null,"address":{"city":"Gurdaspur","state":"PUNJAB","street":"Pathankot Road Near Railway Crossing","country":"India","zip_code":"143521"},"location":{"lat":32.0419437,"lng":75.42019},"distance":null,"dealer_attributes":[],"market_key":"in","featured":false},{"id":178762,"name":"Anil Singh","network_name":"Vindhya Chandauli,","phone":"9696777539","afterhours_phone":null,"afterhours_cell":null,"email":null,"url":null,"address":{"city":"Chandauli","state":"UTTAR PRADESH","street":"Katariya chandauli","country":"India","zip_code":"232104"},"location":{"lat":25.2520867,"lng":83.0681189},"distance":null,"dealer_attributes":[],"market_key":"in","featured":false},{"id":178763,"name":"Mandeep singh","network_name":"Sewak Barabanki","phone":"9984629444","afterhours_phone":null,"afterhours_cell":null,"email":null,"url":null,"address":{"city":"Barabanki","state":"UTTAR PRADESH","street":"Palhari farm, Faizabad road, near Nehar,  Barabanki","country":"India","zip_code":"225001"},"location":{"lat":26.929651,"lng":81.2187581},"distance":null,"dealer_attributes":[],"market_key":"in","featured":false},{"id":178764,"name":"Navodit agrawal","network_name":"Raipur Raipur","phone":"9826445554","afterhours_phone":null,"afterhours_cell":null,"email":null,"url":null,"address":{"city":"Raipur","state":"CHATTISGARH","street":"Block no 13, shop no 1242, Parking no.4, Rawatbhata, T P nagar","country":"India","zip_code":"493221"},"location":{"lat":21.3171866,"lng":81.6363286},"distance":null,"dealer_attributes":[],"market_key":"in","featured":false},{"id":178765,"name":"Chitra samdariya","network_name":"Shan Nagaur","phone":"9667199685","afterhours_phone":null,"afterhours_cell":null,"email":null,"url":null,"address":{"city":"Nagaur","state":"RAJASTHAN","street":"Near glass temple, Heerawadi","country":"India","zip_code":"341001"},"location":{"lat":27.2024816,"lng":73.7522425},"distance":null,"dealer_attributes":[],"market_key":"in","featured":false},{"id":178766,"name":"Deepak Agrawal","network_name":"Subhash Raigarh","phone":"9300412178","afterhours_phone":null,"afterhours_cell":null,"email":null,"url":null,"address":{"city":"Raigarh","state":"CHATTISGARH","street":"House no. 897, Jagatpur Road, Dhimrapur, Raigarh, Chhattisgarh","country":"India","zip_code":"496001"},"location":{"lat":21.91120985,"lng":83.38864513},"distance":null,"dealer_attributes":[],"market_key":"in","featured":false},{"id":178767,"name":"Kushal Badiyani","network_name":"Shantilal Bardhaman","phone":"8145774204","afterhours_phone":null,"afterhours_cell":null,"email":null,"url":null,"address":{"city":"Durgapur","state":"WEST BENGAL","street":"G.T.Road (East), Between TVS and Suzuki Showroom, Bhiringi","country":"India","zip_code":"713213"},"location":{"lat":23.5453272,"lng":87.2785559},"distance":null,"dealer_attributes":[],"market_key":"in","featured":false},{"id":178768,"name":"NAVIN KUMAR AGARWAL","network_name":"Indotyres Un Kolkata","phone":"9830986259","afterhours_phone":null,"afterhours_cell":null,"email":null,"url":null,"address":{"city":"KOLKATA","state":"WEST BENGAL","street":"57A K K TAGIRE STREET POSTA KOLKATA","country":"India","zip_code":"700007"},"location":{"lat":22.59170542,"lng":88.35010588},"distance":null,"dealer_attributes":[],"market_key":"in","featured":false},{"id":178769,"name":"Vidya Prakash Bhola","network_name":"Satguru Shivpuri","phone":"9425137508","afterhours_phone":null,"afterhours_cell":null,"email":null,"url":null,"address":{"city":"Shivpuri","state":"MADHYA PRADESH","street":"Near Jhansi Teeraha,A B Road,Shivpuri","country":"India","zip_code":"473551"},"location":{"lat":25.4171793,"lng":77.6546423},"distance":null,"dealer_attributes":[],"market_key":"in","featured":false},{"id":178770,"name":"Ajay Kumar Bhurga","network_name":"Ajay Shivpuri","phone":"9993485577","afterhours_phone":null,"afterhours_cell":null,"email":null,"url":null,"address":{"city":"Shivpuri","state":"MADHYA PRADESH","street":"Near Jhansi Teeraha, AB Road,Shivpuri","country":"India","zip_code":"473551"},"location":{"lat":25.4170795,"lng":77.6548401},"distance":null,"dealer_attributes":[],"market_key":"in","featured":false},{"id":178771,"name":"Rabbani Khan","network_name":"Khan Tyre  Sultanpur","phone":"9473950070","afterhours_phone":null,"afterhours_cell":null,"email":null,"url":null,"address":{"city":"Sultanpur","state":"UTTAR PRADESH","street":"Gorabarik, Amahat, Jail Mod, Sultanpur","country":"India","zip_code":"228001"},"location":{"lat":26.2547654,"lng":82.0572281},"distance":null,"dealer_attributes":[],"market_key":"in","featured":false},{"id":178772,"name":"PRASANT BAJAJ","network_name":"United Sal Kolkata","phone":"9830042001","afterhours_phone":null,"afterhours_cell":null,"email":null,"url":null,"address":{"city":"KOLKATA","state":"WEST BENGAL","street":"26 K K TAGORE STREET POSTA","country":"India","zip_code":"700007"},"location":{"lat":22.58747883,"lng":88.35272259},"distance":null,"dealer_attributes":[],"market_key":"in","featured":false},{"id":178773,"name":"Manzur khan","network_name":"Sultanautosultanpur","phone":"9839423682","afterhours_phone":null,"afterhours_cell":null,"email":null,"url":null,"address":{"city":"Sultanpur","state":"UTTAR PRADESH","street":"0,Alinagar, Amahat, Sultanpur","country":"India","zip_code":"228001"},"location":{"lat":26.2568611,"lng":82.0337487},"distance":null,"dealer_attributes":[],"market_key":"in","featured":false},{"id":178774,"name":"Vinay Gupta","network_name":"Vindhya Ty Sidhi","phone":"9926349555","afterhours_phone":null,"afterhours_cell":null,"email":null,"url":null,"address":{"city":"Sidhi","state":"MADHYA PRADESH","street":"Opposite Congress bhavan, Sidhi","country":"India","zip_code":"486661"},"location":{"lat":24.4108146,"lng":81.8801721},"distance":null,"dealer_attributes":[],"market_key":"in","featured":false},{"id":178775,"name":"Rishi Punjwani","network_name":"Amitoj Agencies Bhop","phone":"9826014222","afterhours_phone":null,"afterhours_cell":null,"email":null,"url":null,"address":{"city":"Bhopal","state":"MADHYA PRADESH","street":"HIG 34, SHIVAJI Nagar, opp Sargam cinema","country":"India","zip_code":"462016"},"location":{"lat":23.2272976,"lng":77.4350187},"distance":null,"dealer_attributes":[],"market_key":"in","featured":false},{"id":178776,"name":"Anwar Ahmad","network_name":"Amir Motors Amethi","phone":"9889889899","afterhours_phone":null,"afterhours_cell":null,"email":null,"url":null,"address":{"city":"Jagdishpur","state":"UTTAR PRADESH","street":"Ram Lila ground, NH-56, Jagdishpur, Sultanpur","country":"India","zip_code":"227809"},"location":{"lat":26.4536264,"lng":81.6245908},"distance":null,"dealer_attributes":[],"market_key":"in","featured":false},{"id":178777,"name":"Amarjeet Singh Bhogal","network_name":"Tyre House Raipur","phone":"9827161227","afterhours_phone":null,"afterhours_cell":null,"email":null,"url":null,"address":{"city":"Raipur","state":"CHATTISGARH","street":"Opp Tahal singh complex, Ring Road no.2, Tatibandh","country":"India","zip_code":"492099"},"location":{"lat":21.2606451,"lng":81.5678552},"distance":null,"dealer_attributes":[],"market_key":"in","featured":false},{"id":178778,"name":"Vikas Jain","network_name":"V.k.tyres Raipur","phone":"8889905151","afterhours_phone":null,"afterhours_cell":null,"email":null,"url":null,"address":{"city":"Raipur","state":"CHATTISGARH","street":"359/5, T P Nagar, Tatibandh","country":"India","zip_code":"492009"},"location":{"lat":21.2579389,"lng":81.568551},"distance":null,"dealer_attributes":[],"market_key":"in","featured":false},{"id":178779,"name":"Yogesh shukla","network_name":"Shubhenterprise Rewa","phone":"8349929505","afterhours_phone":null,"afterhours_cell":null,"email":null,"url":null,"address":{"city":"Rewa","state":"MADHYA PRADESH","street":"Shri Bala Krishna marriage garden ratahra shilpara Ring road Rewa","country":"India","zip_code":"486003"},"location":{"lat":24.5255882,"lng":81.3342688},"distance":null,"dealer_attributes":[],"market_key":"in","featured":false},{"id":178780,"name":"Sunil Jain","network_name":"Sangeeta Rajsamand","phone":"6378799754","afterhours_phone":null,"afterhours_cell":null,"email":null,"url":null,"address":{"city":"Rajsamand","state":"RAJASTHAN","street":"NH-8, Bhagwan da Khurd, Rajsamand, Rajasthan","country":"India","zip_code":"313324"},"location":{"lat":25.08753601,"lng":73.86491368},"distance":null,"dealer_attributes":[],"market_key":"in","featured":false},{"id":178781,"name":"Dheeraj baheriya","network_name":"Swastika T Kota","phone":"9414179831","afterhours_phone":null,"afterhours_cell":null,"email":null,"url":null,"address":{"city":"Kota","state":"RAJASTHAN","street":"25,jhalawar road,aerodrome circle,near modern petrol pump","country":"India","zip_code":"324007"},"location":{"lat":25.1696084,"lng":75.8520013},"distance":null,"dealer_attributes":[],"market_key":"in","featured":false},{"id":178782,"name":"NEELAM DEVI","network_name":"Neelamchittorgarh","phone":"6376748628","afterhours_phone":null,"afterhours_cell":null,"email":null,"url":null,"address":{"city":"GANGRAR","state":"RAJASTHAN","street":"NEAR PETROL PUMP","country":"India","zip_code":"312901"},"location":{"lat":25.0570744,"lng":74.6252206},"distance":null,"dealer_attributes":[],"market_key":"in","featured":false},{"id":178783,"name":"PUNIT KABRA","network_name":"Mahakaay Chittorgarh","phone":"9413316672","afterhours_phone":null,"afterhours_cell":null,"email":null,"url":null,"address":{"city":"NIMBAHERA","state":"RAJASTHAN","street":"141 , Aadarsh colony, Nimbahera","country":"India","zip_code":"312601"},"location":{"lat":24.6392602,"lng":74.6769995},"distance":null,"dealer_attributes":[],"market_key":"in","featured":false},{"id":178784,"name":"Ashish jain","network_name":"Satma Indu Lucknow","phone":"7007015215","afterhours_phone":null,"afterhours_cell":null,"email":null,"url":null,"address":{"city":"Lucknow","state":"UTTAR PRADESH","street":"E-1/59, phase -2, near parking no-7, opp shivani public school ,transport Nagar,Lucknow","country":"India","zip_code":"226012"},"location":{"lat":26.7758925,"lng":80.8973905},"distance":null,"dealer_attributes":[],"market_key":"in","featured":false},{"id":178785,"name":"Ashok seth","network_name":"Bhilai Tyr Bhilai","phone":"9826140065","afterhours_phone":null,"afterhours_cell":null,"email":null,"url":null,"address":{"city":"Bhilai","state":"CHATTISGARH","street":"46/2, TP Nagar, Hathkhoj,","country":"India","zip_code":"490020"},"location":{"lat":21.2245468,"lng":81.3994629},"distance":null,"dealer_attributes":[],"market_key":"in","featured":false},{"id":178786,"name":"CHANDAN DEY","network_name":"Kalpana Ty Basirhat","phone":"9434701005","afterhours_phone":null,"afterhours_cell":null,"email":null,"url":null,"address":{"city":"BASIRHAT","state":"WEST BENGAL","street":"OLD MARKET BASIRHAT","country":"India","zip_code":"743411"},"location":{"lat":22.6632843,"lng":88.86174011},"distance":null,"dealer_attributes":[],"market_key":"in","featured":false},{"id":178787,"name":"AYUSH JAIN","network_name":"Jain Tyrebiora","phone":"9074440019","afterhours_phone":null,"afterhours_cell":null,"email":null,"url":null,"address":{"city":"BIAORA","state":"MADHYA PRADESH","street":"13, SANJAY SHOPPING CENTRE OPP. ANAND LODGE INFRONT OF H.P PETROL PUMP BIAORA","country":"India","zip_code":"465664"},"location":{"lat":23.9218645,"lng":76.9117658},"distance":null,"dealer_attributes":[],"market_key":"in","featured":false},{"id":178788,"name":"Ali ( Saif Khan )","network_name":"Ali Tyresbikaner","phone":"7014507329","afterhours_phone":null,"afterhours_cell":null,"email":null,"url":null,"address":{"city":"Bikaner","state":"RAJASTHAN","street":"Shree Ram Dharam Kanta, Beechwal Industries Area Bikaner","country":"India","zip_code":"334006"},"location":{"lat":28.0660199,"lng":73.3403221},"distance":null,"dealer_attributes":[],"market_key":"in","featured":false},{"id":178789,"name":"Sudheer Pandey","network_name":"Sarveswari Faizabad","phone":"9628181000","afterhours_phone":null,"afterhours_cell":null,"email":null,"url":null,"address":{"city":"Faizabad","state":"UTTAR PRADESH","street":"Sri Sarveshwari Nagar, Naka Bye pass, Faizabad","country":"India","zip_code":"224001"},"location":{"lat":26.756181,"lng":82.1393454},"distance":null,"dealer_attributes":[],"market_key":"in","featured":false},{"id":178790,"name":"Avinash saini","network_name":"Saini Tyres Ganjbaso","phone":"9713531793","afterhours_phone":null,"afterhours_cell":null,"email":null,"url":null,"address":{"city":"Ganjbasoda","state":"MADHYA PRADESH","street":"In front of trample bareth road ganj basoda Vidisha 464221","country":"India","zip_code":"464221"},"location":{"lat":23.8559272,"lng":77.9397755},"distance":null,"dealer_attributes":[],"market_key":"in","featured":false},{"id":178791,"name":"Ashadujjaman Molla","network_name":"Star Tyre Malancha","phone":"9732574105","afterhours_phone":null,"afterhours_cell":null,"email":null,"url":null,"address":{"city":"Malancha","state":"WEST BENGAL","street":"Chak Ahmadpur Malancha N 24 Pgs","country":"India","zip_code":"743425"},"location":{"lat":22.51000394,"lng":88.76844064},"distance":null,"dealer_attributes":[],"market_key":"in","featured":false},{"id":178792,"name":"Gulshan Dawar","network_name":"Ashoka Motors Guna","phone":"9425131433","afterhours_phone":null,"afterhours_cell":null,"email":null,"url":null,"address":{"city":"Guna","state":"MADHYA PRADESH","street":"BG road,Guna","country":"India","zip_code":"473001"},"location":{"lat":24.6441002,"lng":77.3096806},"distance":null,"dealer_attributes":[],"market_key":"in","featured":false},{"id":178793,"name":"Husain Badshah","network_name":"Badshah Trading  Tra","phone":"7000361204","afterhours_phone":null,"afterhours_cell":null,"email":null,"url":null,"address":{"city":"Indore","state":"MADHYA PRADESH","street":"1620/2/1 - Transport Nagar Near Shree Ram Tolkanta, Bhawarkua, Indore, Madhya Pradesh","country":"India","zip_code":"452014"},"location":{"lat":22.6944788,"lng":75.8655594},"distance":null,"dealer_attributes":[],"market_key":"in","featured":false},{"id":178794,"name":"Abhay Asati","network_name":"Maa Shardadamoh","phone":"7898191092","afterhours_phone":null,"afterhours_cell":null,"email":null,"url":null,"address":{"city":"Damoh","state":"MADHYA PRADESH","street":"Opposite My Cem factory, Imlai Damoh","country":"India","zip_code":"470661"},"location":{"lat":23.8588944,"lng":79.4364565},"distance":null,"dealer_attributes":[],"market_key":"in","featured":false},{"id":178795,"name":"Ravi Gupta","network_name":"Radhey Shivpuri","phone":"7223833001","afterhours_phone":null,"afterhours_cell":null,"email":null,"url":null,"address":{"city":"Shivpuri","state":"MADHYA PRADESH","street":"Madhav Chauk,A B Road,Shivpuri","country":"India","zip_code":"473551"},"location":{"lat":25.4239123,"lng":77.6577376},"distance":null,"dealer_attributes":[],"market_key":"in","featured":false},{"id":178796,"name":"SUNIL TYRE RETRADING WORKS","network_name":"Sunil Bijoliya","phone":"9928223800","afterhours_phone":null,"afterhours_cell":null,"email":null,"url":null,"address":{"city":"BHILWARA","state":"RAJASTHAN","street":"MEWARA MARKET SALAWATIYA","country":"India","zip_code":"311602"},"location":{"lat":25.112361,"lng":75.2558055},"distance":null,"dealer_attributes":[],"market_key":"in","featured":false},{"id":178797,"name":"Mrs Kiran Devi","network_name":"Balaji Balesar","phone":"9461236512","afterhours_phone":null,"afterhours_cell":null,"email":null,"url":null,"address":{"city":"Balesar","state":"RAJASTHAN","street":"Chapra , Balesar Jaisalmer Highway , Balesar","country":"India","zip_code":"342023"},"location":{"lat":26.2053129,"lng":72.9843206},"distance":null,"dealer_attributes":[],"market_key":"in","featured":false},{"id":178798,"name":"Abdul Rashid Kambay","network_name":"Sky Tyre","phone":"9419018860","afterhours_phone":null,"afterhours_cell":null,"email":null,"url":null,"address":{"city":"Srinagar","state":"JAMMU & KASHMIR","street":"Batamaloo Adda Srinagar","country":"India","zip_code":"190009"},"location":{"lat":34.0751139,"lng":74.7882945},"distance":null,"dealer_attributes":[],"market_key":"in","featured":false},{"id":178799,"name":"VasaviAutomobiles","network_name":"Vasaviauhosurhos","phone":"9443342967","afterhours_phone":null,"afterhours_cell":null,"email":null,"url":null,"address":{"city":"Hosur","state":"TAMIL NADU","street":"Amman Nagar Dinnur","country":"India","zip_code":"635110"},"location":{"lat":12.71046988,"lng":77.81860415},"distance":null,"dealer_attributes":[],"market_key":"in","featured":false},{"id":178800,"name":"Rajeev Kumar Singh","network_name":"Ratan Varanasi","phone":"9451417410","afterhours_phone":null,"afterhours_cell":null,"email":null,"url":null,"address":{"city":"Mau","state":"UTTAR PRADESH","street":"Chiraiyakot, mau","country":"India","zip_code":"276129"},"location":{"lat":25.8900763,"lng":83.3263311},"distance":null,"dealer_attributes":[],"market_key":"in","featured":false},{"id":178801,"name":"RAMJI SINGH","network_name":"Ashirwad T Mau","phone":"9452975741","afterhours_phone":null,"afterhours_cell":null,"email":null,"url":null,"address":{"city":"Mau","state":"UTTAR PRADESH","street":"Bhiti chowk Mau NH-29","country":"India","zip_code":"275101"},"location":{"lat":25.9394909,"lng":83.577168},"distance":null,"dealer_attributes":[],"market_key":"in","featured":false},{"id":178802,"name":"Hemant Kumar Baid","network_name":"Jain Autom Malda","phone":"8918213760","afterhours_phone":null,"afterhours_cell":null,"email":null,"url":null,"address":{"city":"Malda","state":"WEST BENGAL","street":"NH - 34, Jadupur, Gabgachi, English Bazar","country":"India","zip_code":"732103"},"location":{"lat":24.9766056,"lng":88.1319666},"distance":null,"dealer_attributes":[],"market_key":"in","featured":false},{"id":178803,"name":"Chandra Bhushan rai","network_name":"Sudhir Tyr Varanasi","phone":"9415350145","afterhours_phone":null,"afterhours_cell":null,"email":null,"url":null,"address":{"city":"Ghazipur","state":"UTTAR PRADESH","street":"Rauza akkalpura Ghazipur","country":"India","zip_code":"233001"},"location":{"lat":25.5785918,"lng":83.5714633},"distance":null,"dealer_attributes":[],"market_key":"in","featured":false},{"id":178804,"name":"Daneshwar Singh wazir","network_name":"Tyre Exprebaramullah","phone":"9596386493","afterhours_phone":null,"afterhours_cell":null,"email":null,"url":null,"address":{"city":"Baramulla","state":"JAMMU & KASHMIR","street":"Shop no 3; uri adda Baramulla","country":"India","zip_code":"193101"},"location":{"lat":34.2014627,"lng":74.3495225},"distance":null,"dealer_attributes":[],"market_key":"in","featured":false},{"id":178805,"name":"Devendra","network_name":"S.s. Corpo Puducherr","phone":"9443348711","afterhours_phone":null,"afterhours_cell":null,"email":null,"url":null,"address":{"city":"Pondicherry","state":"PONDICHERRY","street":"529,Sathya Nagar, Kamaraj Salai","country":"India","zip_code":"605013"},"location":{"lat":11.9408655,"lng":79.8106841},"distance":null,"dealer_attributes":[],"market_key":"in","featured":false},{"id":178806,"name":"Radheyshyam kumawat","network_name":"Krishnajhalawar","phone":"9414571808","afterhours_phone":null,"afterhours_cell":null,"email":null,"url":null,"address":{"city":"Jhalrapatan","state":"RAJASTHAN","street":"Kaka Chuna wala","country":"India","zip_code":"326023"},"location":{"lat":24.53799515,"lng":76.17392663},"distance":null,"dealer_attributes":[],"market_key":"in","featured":false},{"id":178807,"name":"Amit Gupta","network_name":"K K Tyres Jammu","phone":"9419181120","afterhours_phone":null,"afterhours_cell":null,"email":null,"url":null,"address":{"city":"jammu","state":"JAMMU & KASHMIR","street":"shop 19-20 , yard no. 3 Extn, Tpt Nagar Narwal, jammu","country":"India","zip_code":"180006"},"location":{"lat":32.7109092,"lng":74.8900375},"distance":null,"dealer_attributes":[],"market_key":"in","featured":false},{"id":178808,"name":"Abhinandan mahajan","network_name":"Anantenterprisesjamm","phone":"9796454000","afterhours_phone":null,"afterhours_cell":null,"email":null,"url":null,"address":{"city":"Jammu","state":"JAMMU & KASHMIR","street":"Plot no. 107, transport nagar, narwal, jammu","country":"India","zip_code":"180006"},"location":{"lat":32.7109337,"lng":74.8900876},"distance":null,"dealer_attributes":[],"market_key":"in","featured":false},{"id":178809,"name":"Rajesh gupta","network_name":"Quality Sales Jammu","phone":"9419194064","afterhours_phone":null,"afterhours_cell":null,"email":null,"url":null,"address":{"city":"Jammu","state":"JAMMU & KASHMIR","street":"Shop no. 41,yard 6,  transport nagar, narwal,jammu","country":"India","zip_code":"180006"},"location":{"lat":32.7115373,"lng":74.8889142},"distance":null,"dealer_attributes":[],"market_key":"in","featured":false},{"id":178810,"name":"Rameshwar lal suwalka","network_name":"Suwalkaudaipur","phone":"9785141777","afterhours_phone":null,"afterhours_cell":null,"email":null,"url":null,"address":{"city":"Udaipur","state":"RAJASTHAN","street":"18-E, pratapnagar chorah","country":"India","zip_code":"313001"},"location":{"lat":24.5919556,"lng":73.7534856},"distance":null,"dealer_attributes":[],"market_key":"in","featured":false},{"id":178811,"name":"Imtiyaz Ahmed wani","network_name":"Wani Tradersnowgam","phone":"7889333032","afterhours_phone":null,"afterhours_cell":null,"email":null,"url":null,"address":{"city":"Banihal","state":"JAMMU & KASHMIR","street":"Nowgam banihal","country":"India","zip_code":"182146"},"location":{"lat":33.4958168,"lng":75.188397},"distance":null,"dealer_attributes":[],"market_key":"in","featured":false},{"id":178812,"name":"Ramniwas garg","network_name":"Garg Tyre  Dholpur","phone":"9414929174","afterhours_phone":null,"afterhours_cell":null,"email":null,"url":null,"address":{"city":"dholpur","state":"RAJASTHAN","street":"karauli road sarmathura","country":"India","zip_code":"328026"},"location":{"lat":26.5190046,"lng":77.3720996},"distance":null,"dealer_attributes":[],"market_key":"in","featured":false},{"id":178813,"name":"Rajesh arora","network_name":"Marutishahpura","phone":"9829064091","afterhours_phone":null,"afterhours_cell":null,"email":null,"url":null,"address":{"city":"Jaipur","state":"RAJASTHAN","street":"Dron colony shahpura","country":"India","zip_code":"303103"},"location":{"lat":27.3822038,"lng":75.9565095},"distance":null,"dealer_attributes":[],"market_key":"in","featured":false},{"id":178814,"name":"Ponkasu","network_name":"Sri Guruva Mettupala","phone":"9842720350","afterhours_phone":null,"afterhours_cell":null,"email":null,"url":null,"address":{"city":"Mettupalayam","state":"TAMIL NADU","street":"194-A,JKP Complex,kovai main Road,Mettupalayam.","country":"India","zip_code":"641301"},"location":{"lat":11.2987185,"lng":76.9391581},"distance":null,"dealer_attributes":[],"market_key":"in","featured":false},{"id":178815,"name":"George Joseph","network_name":"Tyre World Kottayam(","phone":"9895704526","afterhours_phone":null,"afterhours_cell":null,"email":null,"url":null,"address":{"city":"Pala","state":"KERALA","street":"Market Road","country":"India","zip_code":"686575"},"location":{"lat":9.7154293,"lng":76.6834485},"distance":null,"dealer_attributes":[],"market_key":"in","featured":false},{"id":178816,"name":"Periyasamy R","network_name":"Raja Perundurai","phone":"9842424433","afterhours_phone":null,"afterhours_cell":null,"email":null,"url":null,"address":{"city":"Erode","state":"TAMIL NADU","street":"134 M c Road west KOVAI main Road Perundurai","country":"India","zip_code":"638052"},"location":{"lat":11.2716013,"lng":77.5777612},"distance":null,"dealer_attributes":[],"market_key":"in","featured":false},{"id":178817,"name":"Hasan Abbas","network_name":"M/sazmityrejaunpur","phone":"9415255217","afterhours_phone":null,"afterhours_cell":null,"email":null,"url":null,"address":{"city":"JAUNPUR","state":"UTTAR PRADESH","street":"SIPAH NEAR SHAH FEROZ TOMB OPPOSITE ACHLA DEVI MANDIR GATE JAUNPUR","country":"India","zip_code":"222001"},"location":{"lat":25.7472925,"lng":82.6971095},"distance":null,"dealer_attributes":[],"market_key":"in","featured":false},{"id":178818,"name":"Satwinder Singh","network_name":"New Punjab Phagwara","phone":"9872044140","afterhours_phone":null,"afterhours_cell":null,"email":null,"url":null,"address":{"city":"Phagwqrq","state":"PUNJAB","street":"Hoshiarpur Road","country":"India","zip_code":"144401"},"location":{"lat":31.2347377,"lng":75.7733427},"distance":null,"dealer_attributes":[],"market_key":"in","featured":false},{"id":178819,"name":"PANOLI TYRES &WHEEL ALIGNMENT","network_name":"Panolimallapuram","phone":"9037768180","afterhours_phone":null,"afterhours_cell":null,"email":null,"url":null,"address":{"city":"MANJERI","state":"KERALA","street":"22/24, E, Thirkarankode","country":"India","zip_code":"676123"},"location":{"lat":11.138797,"lng":76.1208655},"distance":null,"dealer_attributes":[],"market_key":"in","featured":false},{"id":178820,"name":"Aadi Shakti enterprises","network_name":"Aadi Shaktiazamagarh","phone":"8299674235","afterhours_phone":null,"afterhours_cell":null,"email":null,"url":null,"address":{"city":"Azamgarh","state":"UTTAR PRADESH","street":"Post airakalan Vill faddupur Tarwan tehsil Mehnagar","country":"India","zip_code":"276126"},"location":{"lat":25.7852392,"lng":83.2868888},"distance":null,"dealer_attributes":[],"market_key":"in","featured":false},{"id":178821,"name":"Rajesh Khajuria","network_name":"Shakti Chadwal","phone":"9419682097","afterhours_phone":null,"afterhours_cell":null,"email":null,"url":null,"address":{"city":"Chadwal","state":"JAMMU & KASHMIR","street":"Chadwal","country":"India","zip_code":"184144"},"location":{"lat":32.4710145,"lng":75.3344765},"distance":null,"dealer_attributes":[],"market_key":"in","featured":false},{"id":178822,"name":"Royal Tyre Mart","network_name":"Royal Ernakulam","phone":"9447815718","afterhours_phone":null,"afterhours_cell":null,"email":null,"url":null,"address":{"city":"Thripunithura","state":"KERALA","street":"Choorakkadu Thripunithura","country":"India","zip_code":"682301"},"location":{"lat":9.928335961,"lng":76.35578174},"distance":null,"dealer_attributes":[],"market_key":"in","featured":false},{"id":178823,"name":"Atter Singh saini","network_name":"Jamalpuria Shahjahnp","phone":"9001057614","afterhours_phone":null,"afterhours_cell":null,"email":null,"url":null,"address":{"city":"Behror","state":"RAJASTHAN","street":"Bhaskar Mandir Dada ki Dhani","country":"India","zip_code":"301701"},"location":{"lat":27.8827886,"lng":76.2853823},"distance":null,"dealer_attributes":[],"market_key":"in","featured":false},{"id":178824,"name":"Rakesh Kasana","network_name":"Shri Kotputli","phone":"9414823527","afterhours_phone":null,"afterhours_cell":null,"email":null,"url":null,"address":{"city":"Kotputli","state":"RAJASTHAN","street":"NH 8 Putli, Kotputli","country":"India","zip_code":"303108"},"location":{"lat":27.6879623,"lng":76.1839889},"distance":null,"dealer_attributes":[],"market_key":"in","featured":false},{"id":178825,"name":"Balakrishnan","network_name":"Kbk Agencies Ponnani","phone":"9539076633","afterhours_phone":null,"afterhours_cell":null,"email":null,"url":null,"address":{"city":"Edappal","state":"KERALA","street":"Edappal","country":"India","zip_code":"679577"},"location":{"lat":9.9308541,"lng":76.4062294},"distance":null,"dealer_attributes":[],"market_key":"in","featured":false},{"id":178826,"name":"Varghese kurian","network_name":"Kay Alappuzha","phone":"9447084377","afterhours_phone":null,"afterhours_cell":null,"email":null,"url":null,"address":{"city":"Alappuzha","state":"KERALA","street":"Mavelikkara","country":"India","zip_code":"690101"},"location":{"lat":10.0419174,"lng":76.3053217},"distance":null,"dealer_attributes":[],"market_key":"in","featured":false},{"id":178827,"name":"Bablu Shuka , Sushil Shukla","network_name":"New Prakash Fatehpur","phone":"8953999797","afterhours_phone":null,"afterhours_cell":null,"email":null,"url":null,"address":{"city":"Fatehpur","state":"UTTAR PRADESH","street":"Mahapur,Lucknow Road , Bypass","country":"India","zip_code":"212601"},"location":{"lat":25.9438545,"lng":80.8334538},"distance":null,"dealer_attributes":[],"market_key":"in","featured":false},{"id":178828,"name":"Raj Kumar","network_name":"Jai Tyres Alwar","phone":"9414231897","afterhours_phone":null,"afterhours_cell":null,"email":null,"url":null,"address":{"city":"Alwar","state":"RAJASTHAN","street":"A-539 TRANSPORT NAGAR ALWAR","country":"India","zip_code":"301001"},"location":{"lat":27.5833151,"lng":76.6314302},"distance":null,"dealer_attributes":[],"market_key":"in","featured":false},{"id":178829,"name":"Shadien siddique","network_name":"Kys Tyresernakulam","phone":"9895653939","afterhours_phone":null,"afterhours_cell":null,"email":null,"url":null,"address":{"city":"MUVATTUPUZHA","state":"KERALA","street":"X1/265A,M C ROAD,OPP CHARIS HOSPITAL, PALLIPADY,MUVATTUPUZHA","country":"India","zip_code":"686673"},"location":{"lat":10.0081492,"lng":76.5681488},"distance":null,"dealer_attributes":[],"market_key":"in","featured":false},{"id":178830,"name":"Shailaja.R","network_name":"Kannan Tyr Palakkad","phone":"9447281208","afterhours_phone":null,"afterhours_cell":null,"email":null,"url":null,"address":{"city":"Palakkad","state":"KERALA","street":"7/636,SSArcade, Kandthpara,opp.Marutharoad Village,post Marutharoad","country":"India","zip_code":"678007"},"location":{"lat":10.7738596,"lng":76.6940254},"distance":null,"dealer_attributes":[],"market_key":"in","featured":false},{"id":178831,"name":"Mathew Joseph","network_name":"Tyre House","phone":"9447080676","afterhours_phone":null,"afterhours_cell":null,"email":null,"url":null,"address":{"city":"Kottayam","state":"KERALA","street":"CSI Commercial Complex","country":"India","zip_code":"686001"},"location":{"lat":9.593833413,"lng":76.5225784},"distance":null,"dealer_attributes":[],"market_key":"in","featured":false},{"id":178832,"name":"Ankit Goyal","network_name":"Mahamaya T Shahpura","phone":"8696904423","afterhours_phone":null,"afterhours_cell":null,"email":null,"url":null,"address":{"city":"Shahpura","state":"RAJASTHAN","street":"NH 8 Near LIC  office SHAHPURA","country":"India","zip_code":"303103"},"location":{"lat":27.3820888,"lng":75.9610199},"distance":null,"dealer_attributes":[],"market_key":"in","featured":false},{"id":178833,"name":"Satish Gupta","network_name":"Milan Sumerganj","phone":"9919230401","afterhours_phone":null,"afterhours_cell":null,"email":null,"url":null,"address":{"city":"Sumerganj","state":"UTTAR PRADESH","street":"Sumerganj, Barabanki","country":"India","zip_code":"225409"},"location":{"lat":26.7946631,"lng":81.5604996},"distance":null,"dealer_attributes":[],"market_key":"in","featured":false}]